[
  {
    "date": "2020-06-20",
    "standard": "test",
    "efficiency": "1106",
    "process": "unknown",
    "address": "this is a test",
    "latitude": "0",
    "uploadImgIDArray": [
      625,
      626
    ],
    "type": "null",
    "operator": "zzy",
    "can": "110",
    "fan": "123",
    "phone": "123234354",
    "name": "test",
    "boost": "456",
    "id": "32426",
    "reflux": "789",
    "monitors": [ ],
    "longitude": "0"
  },
  {
    "date": "Sat Sep 05",
    "standard": "test",
    "efficiency": "1106",
    "process": "unknown",
    "address": "this is a test",
    "latitude": "0",
    "uploadImgIDArray": [
      625,
      626
    ],
    "type": "null",
    "operator": "zzy",
    "can": "110",
    "fan": "123",
    "phone": "123234354",
    "name": "test",
    "boost": "456",
    "id": "11335",
    "reflux": "789",
    "monitors": [ ],
    "longitude": "0"
  },
  {
    "date": "Wed Sep 16 2020 00:00:00 GMT+0800 (中国标准时间)",
    "standard": "test",
    "efficiency": "1106",
    "process": "unknown",
    "address": "this is a test",
    "latitude": "0",
    "uploadImgIDArray": [
      625,
      626
    ],
    "type": "null",
    "operator": "zzy",
    "can": "110",
    "fan": "123",
    "phone": "123234354",
    "name": "test",
    "boost": "456",
    "id": "11344",
    "reflux": "789",
    "monitors": [ ],
    "longitude": "0"
  },
  {
    "date": "2020-09-04T16:00:00.000Z",
    "standard": "test",
    "efficiency": "1106",
    "process": "unknown",
    "address": "this is a test",
    "latitude": "0",
    "uploadImgIDArray": [
      625,
      626
    ],
    "type": "null",
    "operator": "zzy",
    "can": "110",
    "fan": "123",
    "phone": "123234354",
    "name": "test",
    "boost": "456",
    "id": "11379",
    "reflux": "789",
    "monitors": [ ],
    "longitude": "0"
  },
  {
    "date": "2020-09-02T16:00:00.000Z",
    "standard": "test",
    "efficiency": "1106",
    "process": "unknown",
    "address": "this is a test",
    "latitude": "0",
    "uploadImgIDArray": [
      625,
      626
    ],
    "type": "null",
    "operator": "zzy",
    "can": "110",
    "fan": "123",
    "phone": "123234354",
    "name": "test",
    "boost": "456",
    "id": "21343",
    "reflux": "789",
    "monitors": [ ],
    "longitude": "0"
  },
  {
    "date": "2020-09-08T16:00:00.000Z",
    "standard": "test",
    "efficiency": "1106",
    "process": "unknown",
    "address": "this is a test",
    "latitude": "0",
    "uploadImgIDArray": [
      625,
      626
    ],
    "type": "null",
    "operator": "zzy",
    "can": "110",
    "fan": "123",
    "phone": "123234354",
    "name": "test",
    "boost": "456",
    "id": "11348",
    "reflux": "789",
    "monitors": [ ],
    "longitude": "0"
  },
  {
    "date": "2020-09-08T16:00:00.000Z",
    "standard": "test",
    "efficiency": "1106",
    "process": "unknown",
    "address": "this is a test",
    "latitude": "0",
    "uploadImgIDArray": [
      625,
      626
    ],
    "type": "null",
    "operator": "zzy",
    "can": "110",
    "fan": "123",
    "phone": "123234354",
    "name": "test",
    "boost": "456",
    "id": "32425",
    "reflux": "789",
    "monitors": [ ],
    "longitude": "0"
  },
  {
    "date": "2020-9-2",
    "standard": "test",
    "efficiency": "1106",
    "process": "unknown",
    "address": "this is a test",
    "latitude": "0",
    "uploadImgIDArray": [
      625,
      626
    ],
    "type": "null",
    "operator": "zzy",
    "can": "110",
    "fan": "123",
    "phone": "123234354",
    "name": "test",
    "boost": "456",
    "id": "21353",
    "reflux": "789",
    "monitors": [ ],
    "longitude": "0"
  },
  {
    "date": "2020-06-20",
    "standard": "test",
    "efficiency": "1106",
    "process": "unknown",
    "address": "this is a test",
    "latitude": "0",
    "uploadImgIDArray": [
      625,
      626
    ],
    "type": "null",
    "operator": "zzy",
    "can": "110",
    "fan": "123",
    "phone": "123234354",
    "name": "test",
    "boost": "456",
    "id": "11339",
    "reflux": "789",
    "monitors": [ ],
    "longitude": "0"
  },
  {
    "date": "2020-06-20",
    "standard": "test",
    "efficiency": "1106",
    "process": "unknown",
    "address": "this is a test",
    "latitude": "0",
    "uploadImgIDArray": [
      625,
      626
    ],
    "type": "null",
    "operator": "zzy",
    "can": "110",
    "fan": "123",
    "phone": "123234354",
    "name": "test",
    "boost": "456",
    "id": "11357",
    "reflux": "789",
    "monitors": [ ],
    "longitude": "0"
  },
  {
    "date": "2020-06-20",
    "standard": "test",
    "efficiency": "1106",
    "process": "unknown",
    "address": "this is a test",
    "latitude": "0",
    "uploadImgIDArray": [
      625,
      626
    ],
    "type": "null",
    "operator": "zzy",
    "can": "110",
    "fan": "123",
    "phone": "123234354",
    "name": "test",
    "boost": "456",
    "id": "26913",
    "reflux": "789",
    "monitors": [ ],
    "longitude": "0"
  },
  {
    "date": "2020-06-20",
    "standard": "test",
    "efficiency": "1106",
    "process": "unknown",
    "address": "this is a test",
    "latitude": "0",
    "uploadImgIDArray": [
      625,
      626
    ],
    "type": "null",
    "operator": "zzy",
    "can": "110",
    "fan": "123",
    "phone": "123234354",
    "name": "test",
    "boost": "456",
    "id": "21397",
    "reflux": "789",
    "monitors": [ ],
    "longitude": "0"
  },
  {
    "date": "2020-06-20",
    "standard": "test",
    "efficiency": "1106",
    "process": "unknown",
    "address": "this is a test",
    "latitude": "0",
    "uploadImgIDArray": [
      625,
      626
    ],
    "type": "null",
    "operator": "zzy",
    "can": "110",
    "fan": "123",
    "phone": "123234354",
    "name": "test",
    "boost": "456",
    "id": "29646",
    "reflux": "789",
    "monitors": [ ],
    "longitude": "0"
  },
  {
    "date": "2020-06-20",
    "standard": "test",
    "efficiency": "1106",
    "process": "unknown",
    "address": "this is a test",
    "latitude": "0",
    "uploadImgIDArray": [
      625,
      626
    ],
    "type": "null",
    "operator": "zzy",
    "can": "110",
    "fan": "123",
    "phone": "123234354",
    "name": "test",
    "boost": "456",
    "id": "31655",
    "reflux": "789",
    "monitors": [ ],
    "longitude": "0"
  },
  {
    "date": "2020-06-20",
    "standard": "test",
    "efficiency": "1106",
    "process": "unknown",
    "address": "this is a test",
    "latitude": "0",
    "uploadImgIDArray": [
      625,
      626
    ],
    "type": "null",
    "operator": "zzy",
    "can": "110",
    "fan": "123",
    "phone": "123234354",
    "name": "test",
    "boost": "456",
    "id": "11338",
    "reflux": "789",
    "monitors": [ ],
    "longitude": "0"
  },
  {
    "date": "2020-09-09T16:00:00.000Z",
    "standard": "test",
    "efficiency": "1106",
    "process": "unknown",
    "address": "玉溪市",
    "latitude": "0",
    "uploadImgIDArray": [
      636,
      637
    ],
    "type": "null",
    "operator": "test",
    "can": "110",
    "fan": "123",
    "phone": "123234354",
    "name": "九溪镇河口村",
    "boost": "456",
    "id": "29692",
    "reflux": "789",
    "monitors": [ ],
    "longitude": "0"
  },
  {
    "date": "2020-06-20",
    "standard": "test",
    "efficiency": "1106",
    "process": "unknown",
    "address": "this is a test",
    "latitude": "0",
    "uploadImgIDArray": [
      625,
      626
    ],
    "type": "null",
    "operator": "zzy",
    "can": "110",
    "fan": "123",
    "phone": "123234354",
    "name": "test",
    "boost": "456",
    "id": "29685",
    "reflux": "789",
    "monitors": [ ],
    "longitude": "0"
  },
  {
    "date": "2020-9-2",
    "standard": "test",
    "efficiency": "1106",
    "process": "unknown",
    "address": "云南省昆明市呈贡区吴家营街道云南大学软件学院",
    "latitude": "0",
    "uploadImgIDArray": [
      630,
      631,
      632
    ],
    "type": "null",
    "operator": "zzy",
    "can": "110",
    "fan": "123",
    "phone": "123234354",
    "name": "YNU测试平台",
    "boost": "456",
    "id": "-55920407621876427",
    "reflux": "789",
    "monitors": [
      {
        "date": "2020-10-8",
        "name": "进出水监控",
        "url": "http://hls01open.ys7.com/openlive/5d0b898798c14aafa5cc8e7865e519e3.hd.m3u8"
      },
      {
        "date": "2020-10-9",
        "name": "test",
        "url": "http://hls01open.ys7.com/openlive/5d0b898798c14aafa5cc8e7865e519e3.hd.m3u8"
      }
    ],
    "longitude": "0"
  },
  {
    "date": "2020-06-20",
    "standard": "test",
    "efficiency": "1106",
    "process": "unknown",
    "address": "this is a test",
    "latitude": "0",
    "uploadImgIDArray": [
      625,
      626
    ],
    "type": "null",
    "operator": "zzy",
    "can": "110",
    "fan": "123",
    "phone": "123234354",
    "name": "test",
    "boost": "456",
    "id": "21396",
    "reflux": "789",
    "monitors": [
      {
        "date": "2020-10-8",
        "name": "进出水监控1",
        "url": "http://hls01open.ys7.com/openlive/5d0b898798c14aafa5cc8e7865e519e3.hd.m3u8"
      },
      {
        "date": "2020-10-8",
        "name": "test",
        "url": "http://hls01open.ys7.com/openlive/5d0b898798c14aafa5cc8e7865e519e3.hd.m3u8"
      }
    ],
    "longitude": "0"
  }
]